{
"type": "FeatureCollection",
"name": "pemerintahan",
"crs": { "type": "name", "properties": { "name": "urn:ogc:def:crs:OGC:1.3:CRS84" } },
"features": [
{ "type": "Feature", "properties": { "Nama": "Tirta 8", "Rating": 5.0, "Ulasan": 2, "Jenis": "Water treatment plant", "Alamat": "Jalan parangtritis km 8.5 Sewon Bantul", "Kota": "Bantul", "Full Address": "Tirta 8 Water treatment plant Bantul ", "Latitude": -7.8684626, "Longitude": 110.3515983 }, "geometry": { "type": "Point", "coordinates": [ 110.3515983, -7.8684626 ] } },
{ "type": "Feature", "properties": { "Nama": "Puskesmas Sewon 1", "Rating": 3.1, "Ulasan": 153, "Jenis": "Public medical center", "Alamat": "Jl. Parangtritis No.Km. 7", "Kota": "Bantul", "Full Address": "Puskesmas Sewon 1 Public medical center Bantul ", "Latitude": -7.860889, "Longitude": 110.353412 }, "geometry": { "type": "Point", "coordinates": [ 110.353412, -7.860889 ] } },
{ "type": "Feature", "properties": { "Nama": "IPAL Komunal Ngentak", "Rating": null, "Ulasan": null, "Jenis": "Sewage treatment plant", "Alamat": "499F+8RG", "Kota": "Bantul", "Full Address": "IPAL Komunal Ngentak Sewage treatment plant Bantul ", "Latitude": -7.8816923, "Longitude": 110.3745851 }, "geometry": { "type": "Point", "coordinates": [ 110.3745851, -7.8816923 ] } },
{ "type": "Feature", "properties": { "Nama": "Tembi Rumah Budaya", "Rating": 4.4, "Ulasan": 3176, "Jenis": "Hotel", "Alamat": "Jl. Parangtritis No.Km 8.4", "Kota": "Bantul", "Full Address": "Tembi Rumah Budaya Hotel Bantul ", "Latitude": -7.8700932, "Longitude": 110.3562056 }, "geometry": { "type": "Point", "coordinates": [ 110.3562056, -7.8700932 ] } },
{ "type": "Feature", "properties": { "Nama": "SD Negeri Timbulharjo", "Rating": 4.4, "Ulasan": 18, "Jenis": "Elementary school", "Alamat": "Jl. Parangtritis", "Kota": "Bantul", "Full Address": "SD Negeri Timbulharjo Elementary school Bantul ", "Latitude": -7.8693837, "Longitude": 110.3519828 }, "geometry": { "type": "Point", "coordinates": [ 110.3519828, -7.8693837 ] } },
{ "type": "Feature", "properties": { "Nama": "Depot Air Minum Isi Ulang \"MINERO WATER\"", "Rating": 4.7, "Ulasan": 17, "Jenis": "Store", "Alamat": "Dagan RT 8 Timbulharjo Sewon Bantul", "Kota": "Bantul", "Full Address": "Depot Air Minum Isi Ulang \"MINERO WATER\" Store Bantul ", "Latitude": -7.877917, "Longitude": 110.359728 }, "geometry": { "type": "Point", "coordinates": [ 110.359728, -7.877917 ] } },
{ "type": "Feature", "properties": { "Nama": "dOmah Hotel Yogya", "Rating": 4.5, "Ulasan": 912, "Jenis": "Hotel", "Alamat": "Jl. Tembi Jl. Parangtritis", "Kota": "Bantul", "Full Address": "dOmah Hotel Yogya Hotel Bantul ", "Latitude": -7.8714719, "Longitude": 110.3534948 }, "geometry": { "type": "Point", "coordinates": [ 110.3534948, -7.8714719 ] } },
{ "type": "Feature", "properties": { "Nama": "Argesh Fresh Ngoto", "Rating": null, "Ulasan": null, "Jenis": "Water treatment plant", "Alamat": "49JF+7R2, Jl. Imogiri Barat", "Kota": "Bantul", "Full Address": "Argesh Fresh Ngoto Water treatment plant Bantul ", "Latitude": -7.869355, "Longitude": 110.374519 }, "geometry": { "type": "Point", "coordinates": [ 110.374519, -7.869355 ] } },
{ "type": "Feature", "properties": { "Nama": "Legiyem Homestay", "Rating": 4.7, "Ulasan": 27, "Jenis": "Lodging", "Alamat": "Gg. Kresna", "Kota": "Bantul", "Full Address": "Legiyem Homestay Lodging Bantul ", "Latitude": -7.8730943, "Longitude": 110.3498071 }, "geometry": { "type": "Point", "coordinates": [ 110.3498071, -7.8730943 ] } },
{ "type": "Feature", "properties": { "Nama": "Alam Citra Housing Complex", "Rating": 4.3, "Ulasan": 43, "Jenis": "Housing authority", "Alamat": "Perum alam citra c.5, Jl. Parangtritis KM.7", "Kota": "Bantul", "Full Address": "Alam Citra Housing Complex Housing authority Bantul ", "Latitude": -7.8607521, "Longitude": 110.3555664 }, "geometry": { "type": "Point", "coordinates": [ 110.3555664, -7.8607521 ] } },
{ "type": "Feature", "properties": { "Nama": "Desa Wisata Tembi", "Rating": 5.0, "Ulasan": 1, "Jenis": "Tourist attraction", "Alamat": "Jl. Tembi", "Kota": "Bantul", "Full Address": "Desa Wisata Tembi Tourist attraction Bantul ", "Latitude": -7.8725003, "Longitude": 110.3545201 }, "geometry": { "type": "Point", "coordinates": [ 110.3545201, -7.8725003 ] } }
]
}
